<?xml version="1.0" encoding="utf-8"?>
<ArrayOfVolunteer xmlns:xsi="http://www.w3.org/2001/XMLSchema-instance" xmlns:xsd="http://www.w3.org/2001/XMLSchema">
  <Volunteer>
    <Id>260309813</Id>
    <Name>Shlomo</Name>
    <Phone>05321234565</Phone>
    <Email>Shlomo@gmail.com</Email>
    <Role>Manager</Role>
    <IsActive>true</IsActive>
    <DistanceType>AerialDistance</DistanceType>
    <MaximumDistance>43</MaximumDistance>
    <Password>Shlomo23A56</Password>
    <Address>Tel Aviv</Address>
    <Latitude>32.0853</Latitude>
    <Longitude>34.7818</Longitude>
    <MaxEndTime xsi:nil="true" />
  </Volunteer>
  <Volunteer>
    <Id>940560478</Id>
    <Name>Sari</Name>
    <Phone>050-321-4571</Phone>
    <Email>Sari@gmail.com</Email>
    <Role>Volunteer</Role>
    <IsActive>true</IsActive>
    <DistanceType>AerialDistance</DistanceType>
    <MaximumDistance>14</MaximumDistance>
    <Password>Sari45G92h</Password>
    <Address>Jerusalem, King George St.</Address>
    <Latitude>35.2137</Latitude>
    <Longitude>31.7683</Longitude>
    <MaxEndTime xsi:nil="true" />
  </Volunteer>
  <Volunteer>
    <Id>485578955</Id>
    <Name>Pnina</Name>
    <Phone>052-897-6524</Phone>
    <Email>Pnina@gmail.com</Email>
    <Role>Volunteer</Role>
    <IsActive>true</IsActive>
    <DistanceType>AerialDistance</DistanceType>
    <MaximumDistance>34</MaximumDistance>
    <Password>Pnina87Z56j</Password>
    <Address>Tel Aviv, Rothschild Blvd.</Address>
    <Latitude>34.7818</Latitude>
    <Longitude>32.0853</Longitude>
    <MaxEndTime xsi:nil="true" />
  </Volunteer>
  <Volunteer>
    <Id>941059622</Id>
    <Name>Shira</Name>
    <Phone>054-123-8745</Phone>
    <Email>Shira@gmail.com</Email>
    <Role>Volunteer</Role>
    <IsActive>true</IsActive>
    <DistanceType>AerialDistance</DistanceType>
    <MaximumDistance>8</MaximumDistance>
    <Password>Shira32X19b</Password>
    <Address>Haifa, Carmel Beach</Address>
    <Latitude>34.9896</Latitude>
    <Longitude>32.794</Longitude>
    <MaxEndTime xsi:nil="true" />
  </Volunteer>
  <Volunteer>
    <Id>933217908</Id>
    <Name>Chaya</Name>
    <Phone>053-549-1235</Phone>
    <Email>Chaya@gmail.com</Email>
    <Role>Volunteer</Role>
    <IsActive>true</IsActive>
    <DistanceType>AerialDistance</DistanceType>
    <MaximumDistance>19</MaximumDistance>
    <Password>Chaya54L72k</Password>
    <Address>Beer Sheva, Ben Gurion Blvd.</Address>
    <Latitude>34.7913</Latitude>
    <Longitude>31.2518</Longitude>
    <MaxEndTime xsi:nil="true" />
  </Volunteer>
  <Volunteer>
    <Id>799475161</Id>
    <Name>Yosi</Name>
    <Phone>055-789-6521</Phone>
    <Email>Yosi@gmail.com</Email>
    <Role>Volunteer</Role>
    <IsActive>true</IsActive>
    <DistanceType>AerialDistance</DistanceType>
    <MaximumDistance>34</MaximumDistance>
    <Password>Yosi18M91q</Password>
    <Address>Ashdod, HaShalom St.</Address>
    <Latitude>34.6553</Latitude>
    <Longitude>31.8044</Longitude>
    <MaxEndTime xsi:nil="true" />
  </Volunteer>
  <Volunteer>
    <Id>360336004</Id>
    <Name>Beni</Name>
    <Phone>050-987-1234</Phone>
    <Email>Beni@gmail.com</Email>
    <Role>Volunteer</Role>
    <IsActive>true</IsActive>
    <DistanceType>AerialDistance</DistanceType>
    <MaximumDistance>29</MaximumDistance>
    <Password>Beni39P65a</Password>
    <Address>Netanya, Herzl St.</Address>
    <Latitude>34.8532</Latitude>
    <Longitude>32.3215</Longitude>
    <MaxEndTime xsi:nil="true" />
  </Volunteer>
  <Volunteer>
    <Id>410143812</Id>
    <Name>Tamar</Name>
    <Phone>054-112-3345</Phone>
    <Email>Tamar@gmail.com</Email>
    <Role>Volunteer</Role>
    <IsActive>true</IsActive>
    <DistanceType>AerialDistance</DistanceType>
    <MaximumDistance>31</MaximumDistance>
    <Password>Tamar75V21n</Password>
    <Address>Rishon LeZion, Neot Afeka St.</Address>
    <Latitude>34.7925</Latitude>
    <Longitude>31.9706</Longitude>
    <MaxEndTime xsi:nil="true" />
  </Volunteer>
  <Volunteer>
    <Id>352856234</Id>
    <Name>Eli</Name>
    <Phone>053-785-9513</Phone>
    <Email>Eli@gmail.com</Email>
    <Role>Volunteer</Role>
    <IsActive>true</IsActive>
    <DistanceType>AerialDistance</DistanceType>
    <MaximumDistance>36</MaximumDistance>
    <Password>Eli26W83f</Password>
    <Address>Petah Tikva, HaSharon St.</Address>
    <Latitude>34.8878</Latitude>
    <Longitude>32.084</Longitude>
    <MaxEndTime xsi:nil="true" />
  </Volunteer>
  <Volunteer>
    <Id>716259955</Id>
    <Name>Moshe</Name>
    <Phone>052-312-6578</Phone>
    <Email>Moshe@gmail.com</Email>
    <Role>Volunteer</Role>
    <IsActive>true</IsActive>
    <DistanceType>AerialDistance</DistanceType>
    <MaximumDistance>21</MaximumDistance>
    <Password>Moshe90R47z</Password>
    <Address>Holon, Jabotinsky St.</Address>
    <Latitude>34.7874</Latitude>
    <Longitude>32.0158</Longitude>
    <MaxEndTime xsi:nil="true" />
  </Volunteer>
  <Volunteer>
    <Id>134408173</Id>
    <Name>Chana</Name>
    <Phone>055-654-9872</Phone>
    <Email>Chana@gmail.com</Email>
    <Role>Volunteer</Role>
    <IsActive>true</IsActive>
    <DistanceType>AerialDistance</DistanceType>
    <MaximumDistance>41</MaximumDistance>
    <Password>Chana63S29m</Password>
    <Address>Bnei Brak, Rabbi Akiva St.</Address>
    <Latitude>34.8333</Latitude>
    <Longitude>32.0809</Longitude>
    <MaxEndTime xsi:nil="true" />
  </Volunteer>
  <Volunteer>
    <Id>497870802</Id>
    <Name>Ari</Name>
    <Phone>053-789-2134</Phone>
    <Email>Ari@gmail.com</Email>
    <Role>Volunteer</Role>
    <IsActive>true</IsActive>
    <DistanceType>AerialDistance</DistanceType>
    <MaximumDistance>8</MaximumDistance>
    <Password>Ari42D78c</Password>
    <Address>Rehovot, Herzl St.</Address>
    <Latitude>34.8093</Latitude>
    <Longitude>31.8948</Longitude>
    <MaxEndTime xsi:nil="true" />
  </Volunteer>
  <Volunteer>
    <Id>737236380</Id>
    <Name>Chaim</Name>
    <Phone>050-125-6789</Phone>
    <Email>Chaim@gmail.com</Email>
    <Role>Volunteer</Role>
    <IsActive>true</IsActive>
    <DistanceType>AerialDistance</DistanceType>
    <MaximumDistance>23</MaximumDistance>
    <Password>Chaim56H14p</Password>
    <Address>Bat Yam, Ben Gurion Blvd.</Address>
    <Latitude>34.7502</Latitude>
    <Longitude>32.0236</Longitude>
    <MaxEndTime xsi:nil="true" />
  </Volunteer>
  <Volunteer>
    <Id>235509768</Id>
    <Name>Shani</Name>
    <Phone>052-456-7890</Phone>
    <Email>Shani@gmail.com</Email>
    <Role>Volunteer</Role>
    <IsActive>true</IsActive>
    <DistanceType>AerialDistance</DistanceType>
    <MaximumDistance>46</MaximumDistance>
    <Password>Shani81J67y</Password>
    <Address>Herzliya, Sokolov St.</Address>
    <Latitude>34.8436</Latitude>
    <Longitude>32.1663</Longitude>
    <MaxEndTime xsi:nil="true" />
  </Volunteer>
  <Volunteer>
    <Id>708108283</Id>
    <Name>Yonatan</Name>
    <Phone>054-654-3210</Phone>
    <Email>Yonatan@gmail.com</Email>
    <Role>Volunteer</Role>
    <IsActive>true</IsActive>
    <DistanceType>AerialDistance</DistanceType>
    <MaximumDistance>19</MaximumDistance>
    <Password>Yonatan97K50x</Password>
    <Address>Hadera, HaSharon Blvd.</Address>
    <Latitude>34.9196</Latitude>
    <Longitude>32.434</Longitude>
    <MaxEndTime xsi:nil="true" />
  </Volunteer>
  <Volunteer>
    <Id>130961314</Id>
    <Name>David</Name>
    <Phone>055-123-7894</Phone>
    <Email>David@gmail.com</Email>
    <Role>Volunteer</Role>
    <IsActive>true</IsActive>
    <DistanceType>AerialDistance</DistanceType>
    <MaximumDistance>47</MaximumDistance>
    <Password>David34Q85v</Password>
    <Address>Eilat, HaTmarim St.</Address>
    <Latitude>34.9482</Latitude>
    <Longitude>29.5581</Longitude>
    <MaxEndTime xsi:nil="true" />
  </Volunteer>
</ArrayOfVolunteer>