<?xml version="1.0" encoding="utf-8"?>
<ArrayOfVolunteer xmlns:xsi="http://www.w3.org/2001/XMLSchema-instance" xmlns:xsd="http://www.w3.org/2001/XMLSchema">
  <Volunteer>
    <Id>322282708</Id>
    <Name>Shlomo</Name>
    <Phone>Shlomo@gmail.com</Phone>
    <Email>05321234565</Email>
    <Role>Manager</Role>
    <IsActive>true</IsActive>
    <DistanceType>AerialDistance</DistanceType>
    <MaximumDistance>31</MaximumDistance>
    <Password>Shlomo23A56</Password>
    <Adress>Tel Aviv</Adress>
    <Latitude>32.0853</Latitude>
    <Longitude>34.7818</Longitude>
  </Volunteer>
  <Volunteer>
    <Id>745626627</Id>
    <Name>Sari</Name>
    <Phone>Sari@gmail.com</Phone>
    <Email>050-321-4571</Email>
    <Role>Volunteer</Role>
    <IsActive>true</IsActive>
    <DistanceType>AerialDistance</DistanceType>
    <MaximumDistance>31</MaximumDistance>
    <Password>Sari45G92h</Password>
    <Adress>Jerusalem, King George St.</Adress>
    <Latitude>35.2137</Latitude>
    <Longitude>31.7683</Longitude>
  </Volunteer>
  <Volunteer>
    <Id>795760543</Id>
    <Name>Pnina</Name>
    <Phone>Pnina@gmail.com</Phone>
    <Email>052-897-6524</Email>
    <Role>Volunteer</Role>
    <IsActive>true</IsActive>
    <DistanceType>AerialDistance</DistanceType>
    <MaximumDistance>9</MaximumDistance>
    <Password>Pnina87Z56j</Password>
    <Adress>Tel Aviv, Rothschild Blvd.</Adress>
    <Latitude>34.7818</Latitude>
    <Longitude>32.0853</Longitude>
  </Volunteer>
  <Volunteer>
    <Id>437286482</Id>
    <Name>Shira</Name>
    <Phone>Shira@gmail.com</Phone>
    <Email>054-123-8745</Email>
    <Role>Volunteer</Role>
    <IsActive>true</IsActive>
    <DistanceType>AerialDistance</DistanceType>
    <MaximumDistance>17</MaximumDistance>
    <Password>Shira32X19b</Password>
    <Adress>Haifa, Carmel Beach</Adress>
    <Latitude>34.9896</Latitude>
    <Longitude>32.794</Longitude>
  </Volunteer>
  <Volunteer>
    <Id>131519488</Id>
    <Name>Chaya</Name>
    <Phone>Chaya@gmail.com</Phone>
    <Email>053-549-1235</Email>
    <Role>Volunteer</Role>
    <IsActive>true</IsActive>
    <DistanceType>AerialDistance</DistanceType>
    <MaximumDistance>23</MaximumDistance>
    <Password>Chaya54L72k</Password>
    <Adress>Beer Sheva, Ben Gurion Blvd.</Adress>
    <Latitude>34.7913</Latitude>
    <Longitude>31.2518</Longitude>
  </Volunteer>
  <Volunteer>
    <Id>781098931</Id>
    <Name>Yosi</Name>
    <Phone>Yosi@gmail.com</Phone>
    <Email>055-789-6521</Email>
    <Role>Volunteer</Role>
    <IsActive>true</IsActive>
    <DistanceType>AerialDistance</DistanceType>
    <MaximumDistance>22</MaximumDistance>
    <Password>Yosi18M91q</Password>
    <Adress>Ashdod, HaShalom St.</Adress>
    <Latitude>34.6553</Latitude>
    <Longitude>31.8044</Longitude>
  </Volunteer>
  <Volunteer>
    <Id>466818976</Id>
    <Name>Beni</Name>
    <Phone>Beni@gmail.com</Phone>
    <Email>050-987-1234</Email>
    <Role>Volunteer</Role>
    <IsActive>true</IsActive>
    <DistanceType>AerialDistance</DistanceType>
    <MaximumDistance>42</MaximumDistance>
    <Password>Beni39P65a</Password>
    <Adress>Netanya, Herzl St.</Adress>
    <Latitude>34.8532</Latitude>
    <Longitude>32.3215</Longitude>
  </Volunteer>
  <Volunteer>
    <Id>741821638</Id>
    <Name>Tamar</Name>
    <Phone>Tamar@gmail.com</Phone>
    <Email>054-112-3345</Email>
    <Role>Volunteer</Role>
    <IsActive>true</IsActive>
    <DistanceType>AerialDistance</DistanceType>
    <MaximumDistance>7</MaximumDistance>
    <Password>Tamar75V21n</Password>
    <Adress>Rishon LeZion, Neot Afeka St.</Adress>
    <Latitude>34.7925</Latitude>
    <Longitude>31.9706</Longitude>
  </Volunteer>
  <Volunteer>
    <Id>797474234</Id>
    <Name>Eli</Name>
    <Phone>Eli@gmail.com</Phone>
    <Email>053-785-9513</Email>
    <Role>Volunteer</Role>
    <IsActive>true</IsActive>
    <DistanceType>AerialDistance</DistanceType>
    <MaximumDistance>40</MaximumDistance>
    <Password>Eli26W83f</Password>
    <Adress>Petah Tikva, HaSharon St.</Adress>
    <Latitude>34.8878</Latitude>
    <Longitude>32.084</Longitude>
  </Volunteer>
  <Volunteer>
    <Id>631518531</Id>
    <Name>Moshe</Name>
    <Phone>Moshe@gmail.com</Phone>
    <Email>052-312-6578</Email>
    <Role>Volunteer</Role>
    <IsActive>true</IsActive>
    <DistanceType>AerialDistance</DistanceType>
    <MaximumDistance>32</MaximumDistance>
    <Password>Moshe90R47z</Password>
    <Adress>Holon, Jabotinsky St.</Adress>
    <Latitude>34.7874</Latitude>
    <Longitude>32.0158</Longitude>
  </Volunteer>
  <Volunteer>
    <Id>679478571</Id>
    <Name>Chana</Name>
    <Phone>Chana@gmail.com</Phone>
    <Email>055-654-9872</Email>
    <Role>Volunteer</Role>
    <IsActive>true</IsActive>
    <DistanceType>AerialDistance</DistanceType>
    <MaximumDistance>36</MaximumDistance>
    <Password>Chana63S29m</Password>
    <Adress>Bnei Brak, Rabbi Akiva St.</Adress>
    <Latitude>34.8333</Latitude>
    <Longitude>32.0809</Longitude>
  </Volunteer>
  <Volunteer>
    <Id>849186110</Id>
    <Name>Ari</Name>
    <Phone>Ari@gmail.com</Phone>
    <Email>053-789-2134</Email>
    <Role>Volunteer</Role>
    <IsActive>true</IsActive>
    <DistanceType>AerialDistance</DistanceType>
    <MaximumDistance>16</MaximumDistance>
    <Password>Ari42D78c</Password>
    <Adress>Rehovot, Herzl St.</Adress>
    <Latitude>34.8093</Latitude>
    <Longitude>31.8948</Longitude>
  </Volunteer>
  <Volunteer>
    <Id>219247747</Id>
    <Name>Chaim</Name>
    <Phone>Chaim@gmail.com</Phone>
    <Email>050-125-6789</Email>
    <Role>Volunteer</Role>
    <IsActive>true</IsActive>
    <DistanceType>AerialDistance</DistanceType>
    <MaximumDistance>41</MaximumDistance>
    <Password>Chaim56H14p</Password>
    <Adress>Bat Yam, Ben Gurion Blvd.</Adress>
    <Latitude>34.7502</Latitude>
    <Longitude>32.0236</Longitude>
  </Volunteer>
  <Volunteer>
    <Id>478594016</Id>
    <Name>Shani</Name>
    <Phone>Shani@gmail.com</Phone>
    <Email>052-456-7890</Email>
    <Role>Volunteer</Role>
    <IsActive>true</IsActive>
    <DistanceType>AerialDistance</DistanceType>
    <MaximumDistance>34</MaximumDistance>
    <Password>Shani81J67y</Password>
    <Adress>Herzliya, Sokolov St.</Adress>
    <Latitude>34.8436</Latitude>
    <Longitude>32.1663</Longitude>
  </Volunteer>
  <Volunteer>
    <Id>504549129</Id>
    <Name>Yonatan</Name>
    <Phone>Yonatan@gmail.com</Phone>
    <Email>054-654-3210</Email>
    <Role>Volunteer</Role>
    <IsActive>true</IsActive>
    <DistanceType>AerialDistance</DistanceType>
    <MaximumDistance>20</MaximumDistance>
    <Password>Yonatan97K50x</Password>
    <Adress>Hadera, HaSharon Blvd.</Adress>
    <Latitude>34.9196</Latitude>
    <Longitude>32.434</Longitude>
  </Volunteer>
  <Volunteer>
    <Id>231219229</Id>
    <Name>David</Name>
    <Phone>David@gmail.com</Phone>
    <Email>055-123-7894</Email>
    <Role>Volunteer</Role>
    <IsActive>true</IsActive>
    <DistanceType>AerialDistance</DistanceType>
    <MaximumDistance>39</MaximumDistance>
    <Password>David34Q85v</Password>
    <Adress>Eilat, HaTmarim St.</Adress>
    <Latitude>34.9482</Latitude>
    <Longitude>29.5581</Longitude>
  </Volunteer>
</ArrayOfVolunteer>